{"type":"FeatureCollection", "features": [
{"type":"Feature","geometry":{"type":"Point","coordinates":[51.71850110518929,35.80567071048768,0]},"properties":{"Name":"نیروگاه لوارک","descriptio":"","timestamp":"","begin":"","end":"","altitudeMo":"","tessellate":-1,"extrude":0,"visibility":-1,"drawOrder":null,"icon":"","X_UTM":5757277.207621029,"Y_UTM":4273914.802043833}},
{"type":"Feature","geometry":{"type":"Point","coordinates":[51.79181006454671,35.80669913228665,0]},"properties":{"Name":"نیروگاه کلان","descriptio":"","timestamp":"","begin":"","end":"","altitudeMo":"","tessellate":-1,"extrude":0,"visibility":-1,"drawOrder":null,"icon":"","X_UTM":5765437.923647281,"Y_UTM":4274055.96517139}},
{"type":"Feature","geometry":{"type":"Point","coordinates":[51.53167971794205,35.79431758327276,0]},"properties":{"Name":"تصفیه خانه شماره 5","descriptio":"","timestamp":"","begin":"","end":"","altitudeMo":"","tessellate":-1,"extrude":0,"visibility":-1,"drawOrder":null,"icon":"","X_UTM":5736480.345923372,"Y_UTM":4272356.57170241}},
{"type":"Feature","geometry":{"type":"Point","coordinates":[51.99110658422646,35.88859027124855,0]},"properties":{"Name":"سد لار","descriptio":"","timestamp":"","begin":"","end":"","altitudeMo":"","tessellate":-1,"extrude":0,"visibility":-1,"drawOrder":null,"icon":"","X_UTM":5787623.510734902,"Y_UTM":4285302.373846436}},
{"type":"Feature","geometry":{"type":"Point","coordinates":[51.57120036895435,35.80385401657369,0]},"properties":{"Name":"قوچک","descriptio":"","timestamp":"","begin":"","end":"","altitudeMo":"","tessellate":-1,"extrude":0,"visibility":-1,"drawOrder":null,"icon":"","X_UTM":5740879.76466988,"Y_UTM":4273665.443656144}},
{"type":"Feature","geometry":{"type":"Point","coordinates":[51.67816749031772,35.8120970850664,0]},"properties":{"Name":"مخزن 8000 مترمکعبی","descriptio":"","timestamp":"","begin":"","end":"","altitudeMo":"","tessellate":-1,"extrude":0,"visibility":-1,"drawOrder":null,"icon":"","X_UTM":5752787.290151673,"Y_UTM":4274796.928390576}},
{"type":"Feature","geometry":{"type":"Point","coordinates":[51.68006006546262,35.79044463958579,0]},"properties":{"Name":"سد لتیان","descriptio":"","timestamp":"","begin":"","end":"","altitudeMo":"","tessellate":-1,"extrude":0,"visibility":-1,"drawOrder":null,"icon":"","X_UTM":5752997.970653092,"Y_UTM":4271825.056463648}},
{"type":"Feature","geometry":{"type":"Point","coordinates":[51.67782543134046,35.78922416656207,0]},"properties":{"Name":"نیروگاه لتیان","descriptio":"","timestamp":"","begin":"","end":"","altitudeMo":"","tessellate":-1,"extrude":0,"visibility":-1,"drawOrder":null,"icon":"","X_UTM":5752749.212320504,"Y_UTM":4271657.566493637}},
{"type":"Feature","geometry":{"type":"Point","coordinates":[51.68155161784848,35.78103507711026,0]},"properties":{"Name":"سد تنظیمی لتیان","descriptio":"","timestamp":"","begin":"","end":"","altitudeMo":"","tessellate":-1,"extrude":0,"visibility":-1,"drawOrder":null,"icon":"","X_UTM":5753164.009505176,"Y_UTM":4270533.814363709}},
{"type":"Feature","geometry":{"type":"Point","coordinates":[51.44105504025593,35.56923703107216,0]},"properties":{"Name":"تصفیه خانه جنوب تهران","descriptio":"","timestamp":"","begin":"","end":"","altitudeMo":"","tessellate":-1,"extrude":0,"visibility":-1,"drawOrder":null,"icon":"","X_UTM":5726392.05295005,"Y_UTM":4241509.792179891}},
{"type":"Feature","geometry":{"type":"Point","coordinates":[51.78970639810112,35.58322045033255,0]},"properties":{"Name":"سد ماملو","descriptio":"","timestamp":"","begin":"","end":"","altitudeMo":"","tessellate":-1,"extrude":0,"visibility":-1,"drawOrder":null,"icon":"","X_UTM":5765203.744569759,"Y_UTM":4243423.657103704}},
{"type":"Feature","geometry":{"type":"Point","coordinates":[51.09119920852302,35.95657480302256,0]},"properties":{"Name":"سد امیر کبیر","descriptio":"","timestamp":"","begin":"","end":"","altitudeMo":"","tessellate":-1,"extrude":0,"visibility":-1,"drawOrder":null,"icon":"","X_UTM":5687446.279910484,"Y_UTM":4294647.775883639}},
{"type":"Feature","geometry":{"type":"Point","coordinates":[51.08923730829657,35.946667124418,0]},"properties":{"Name":"سد تنظیمی کرج","descriptio":"","timestamp":"","begin":"","end":"","altitudeMo":"","tessellate":-1,"extrude":0,"visibility":-1,"drawOrder":null,"icon":"","X_UTM":5687227.882176288,"Y_UTM":4293285.329921726}},
{"type":"Feature","geometry":{"type":"Point","coordinates":[51.04292819681194,35.83161969320176,0]},"properties":{"Name":"آبگیر بیلقان","descriptio":"","timestamp":"","begin":"","end":"","altitudeMo":"","tessellate":-1,"extrude":0,"visibility":-1,"drawOrder":null,"icon":"","X_UTM":5682072.775466731,"Y_UTM":4277477.167667075}},
{"type":"Feature","geometry":{"type":"Point","coordinates":[51.04038629900103,35.83010083907358,0]},"properties":{"Name":"مخازن متعادل کننده","descriptio":"","timestamp":"","begin":"","end":"","altitudeMo":"","tessellate":-1,"extrude":0,"visibility":-1,"drawOrder":null,"icon":"","X_UTM":5681789.812696772,"Y_UTM":4277268.622057789}},
{"type":"Feature","geometry":{"type":"Point","coordinates":[51.28834960964245,35.74507902030331,0]},"properties":{"Name":"تقیه خانه شماره 2 کن","descriptio":"","timestamp":"","begin":"","end":"","altitudeMo":"","tessellate":-1,"extrude":0,"visibility":-1,"drawOrder":null,"icon":"","X_UTM":5709392.962172789,"Y_UTM":4265601.094707428}},
{"type":"Feature","geometry":{"type":"Point","coordinates":[51.30935899498282,35.70137199626723,0]},"properties":{"Name":"تصفیه خانه شماره 1 اکباتان","descriptio":"","timestamp":"","begin":"","end":"","altitudeMo":"","tessellate":-1,"extrude":0,"visibility":-1,"drawOrder":null,"icon":"","X_UTM":5711731.71625076,"Y_UTM":4259608.038861573}},
{"type":"Feature","geometry":{"type":"Point","coordinates":[50.50806513000998,36.10587787872637,0]},"properties":{"Name":"بند زیاران","descriptio":"","timestamp":"","begin":"","end":"","altitudeMo":"","tessellate":-1,"extrude":0,"visibility":-1,"drawOrder":null,"icon":"","X_UTM":5622532.091226208,"Y_UTM":4315199.80179993}},
{"type":"Feature","geometry":{"type":"Point","coordinates":[50.5704488882873,36.12045356332291,0]},"properties":{"Name":"سازه مقسم","descriptio":"","timestamp":"","begin":"","end":"","altitudeMo":"","tessellate":-1,"extrude":0,"visibility":-1,"drawOrder":null,"icon":"","X_UTM":5629476.61943141,"Y_UTM":4317208.2796242805}},
{"type":"Feature","geometry":{"type":"Point","coordinates":[50.56788854596756,36.12135061677474,0]},"properties":{"Name":"مخزن متعادل کننده 180 هزار مترمکعبی","descriptio":"","timestamp":"","begin":"","end":"","altitudeMo":"","tessellate":-1,"extrude":0,"visibility":-1,"drawOrder":null,"icon":"","X_UTM":5629191.60342812,"Y_UTM":4317331.902598078}},
{"type":"Feature","geometry":{"type":"Point","coordinates":[50.59796754958087,35.99401387654706,0]},"properties":{"Name":"Untitled Placemark","descriptio":"","timestamp":"","begin":"","end":"","altitudeMo":"","tessellate":-1,"extrude":0,"visibility":-1,"drawOrder":null,"icon":"","X_UTM":5632539.982793923,"Y_UTM":4299797.721947371}},
{"type":"Feature","geometry":{"type":"Point","coordinates":[50.62989987313799,36.1860473371822,0]},"properties":{"Name":"سد طالقان","descriptio":"","timestamp":"","begin":"","end":"","altitudeMo":"","tessellate":-1,"extrude":0,"visibility":-1,"drawOrder":null,"icon":"","X_UTM":5636094.672792147,"Y_UTM":4326251.488778866}}
]}